[{"Plant":"ACC - WH- JOGESHWARI","State":"Maharashtra","District":"Thane","Location":"Maharashtra India","Rand Qty":"169","Lat":"19.185369","Lon":"72.96195","Country":"India","Address":"5XP6+5Q7, LBS Marg, near Teen Hath Naka, Thane, Maharashtra 400604"},{"Plant":"ACC - WH- JOGESHWARI","State":"Maharashtra","District":"Palghar","Location":"Maharashtra India","Rand Qty":"104","Lat":"19.132275","Lon":"72.849743","Country":"India","Address":"Ushakal Building, The Hindu Friends Society Marg, Hardevi Society, Natwar Nagar, Jogeshwari East, Mumbai, Maharashtra 400060"},{"Plant":"ACC  WH -Leheriasarai","State":"Bihar","District":"Patna","Location":"Bihar India","Rand Qty":"180","Lat":"25.61018","Lon":"85.139461","Country":"India","Address":"SP Verma Rd, Old Jakkanpur, Lodipur, Patna, Bihar 800001"},{"Plant":"ACC  WH -Leheriasarai","State":"Bihar","District":"Darbhanga","Location":"Bihar India","Rand Qty":"178","Lat":"26.154036","Lon":"85.891979","Country":"India","Address":"Darbhanga Tower, Mirzapur, Lal Bagh, Darbhanga, Bihar 846004"},{"Plant":"ACC  WH -Leheriasarai","State":"Bihar","District":"Madhubani","Location":"Bihar India","Rand Qty":"115","Lat":"26.359477","Lon":"86.074487","Country":"India","Address":"Heart Hospital Rd, Mangalbani, Madhubani, Bihar 847211"},{"Plant":"ACC  WH -Leheriasarai","State":"Bihar","District":"Begusarai","Location":"Bihar India","Rand Qty":"148","Lat":"25.426619","Lon":"86.099723","Country":"India","Address":"Ground Floor, Singhaul Dih, Begusarai, Bihar 851134"},{"Plant":"ACC  WH -Leheriasarai","State":"Bihar","District":"Begusarai","Location":"Bihar India","Rand Qty":"149","Lat":"25.426641","Lon":"86.09973","Country":"India","Address":"Ground Floor, Singhaul Dih, Begusarai, Bihar 851134"}]